2015-03-17 00:00:00    $GPGGA,235959.00,6008.5985559,N,01014.9407594,E,1,18,0.60,134.5307,M,40.9646,M,,*5C
2015-03-17 00:00:01    $GPGGA,000000.00,6008.5985563,N,01014.9407613,E,1,18,0.60,134.5334,M,40.9646,M,,*58
2015-03-17 00:00:02    $GPGGA,000001.00,6008.5985536,N,01014.9407620,E,1,18,0.60,134.5475,M,40.9646,M,,*5B
2015-03-17 00:00:03    $GPGGA,000002.00,6008.5985529,N,01014.9407606,E,1,18,0.60,134.5657,M,40.9646,M,,*50
2015-03-17 00:00:04    $GPGGA,000003.00,6008.5986135,N,01014.9408259,E,1,18,0.60,134.8491,M,40.9646,M,,*5F
2015-03-17 00:00:05    $GPGGA,000004.00,6008.5986125,N,01014.9408307,E,1,18,0.60,134.8414,M,40.9646,M,,*5E
2015-03-17 00:00:06    $GPGGA,000005.00,6008.5975494,N,01014.9399873,E,4,16,0.64,133.2226,M,40.9646,M,1.0,0688*77
2015-03-17 00:00:07    $GPGGA,000006.00,6008.5975491,N,01014.9399884,E,4,16,0.64,133.2192,M,40.9646,M,1.0,0688*75
2015-03-17 00:00:08    $GPGGA,000007.00,6008.5975502,N,01014.9399896,E,4,16,0.64,133.2246,M,40.9646,M,1.0,0688*76
2015-03-17 00:00:09    $GPGGA,000008.00,6008.5975516,N,01014.9399877,E,4,16,0.64,133.2226,M,40.9646,M,1.0,0688*75
2015-03-17 00:00:10    $GPGGA,000009.00,6008.5975503,N,01014.9399879,E,4,16,0.64,133.2219,M,40.9646,M,1.0,0688*72
2015-03-17 00:00:11    $GPGGA,000010.00,6008.5975506,N,01014.9399868,E,4,16,0.64,133.2222,M,40.9646,M,1.0,0688*77
2015-03-17 00:00:12    $GPGGA,000011.00,6008.5975502,N,01014.9399852,E,4,16,0.64,133.2187,M,40.9646,M,1.0,0688*77
2015-03-17 00:00:13    $GPGGA,000012.00,6008.5975503,N,01014.9399873,E,4,16,0.64,133.2218,M,40.9646,M,1.0,0688*73
2015-03-17 00:00:14    $GPGGA,000013.00,6008.5975510,N,01014.9399850,E,4,16,0.64,133.2209,M,40.9646,M,1.0,0688*71
2015-03-17 00:00:15    $GPGGA,000014.00,6008.5975514,N,01014.9399874,E,4,16,0.64,133.2248,M,40.9646,M,1.0,0688*71
2015-03-17 00:00:16    $GPGGA,000015.00,6008.5975497,N,01014.9399852,E,4,16,0.64,133.2211,M,40.9646,M,1.0,0688*72
2015-03-17 00:00:17    $GPGGA,000016.00,6008.5975500,N,01014.9399868,E,4,16,0.64,133.2207,M,40.9646,M,2.0,0688*73
2015-03-17 00:00:18    $GPGGA,000017.00,6008.5975511,N,01014.9399881,E,4,16,0.64,133.2203,M,40.9646,M,3.0,0688*70
2015-03-17 00:00:19    $GPGGA,000018.00,6008.5975506,N,01014.9399912,E,4,16,0.64,133.2211,M,40.9646,M,4.0,0688*76
2015-03-17 00:00:20    $GPGGA,000019.00,6008.5975512,N,01014.9399918,E,4,16,0.64,133.2233,M,40.9646,M,5.0,0688*79
2015-03-17 00:00:21    $GPGGA,000020.00,6008.5975510,N,01014.9399916,E,4,16,0.64,133.2284,M,40.9646,M,6.0,0688*70
2015-03-17 00:00:22    $GPGGA,000021.00,6008.5975512,N,01014.9399910,E,4,16,0.64,133.2286,M,40.9646,M,7.0,0688*76
2015-03-17 00:00:23    $GPGGA,000022.00,6008.5975508,N,01014.9399908,E,4,16,0.64,133.2280,M,40.9646,M,8.0,0688*7E
2015-03-17 00:00:24    $GPGGA,000023.00,6008.5975499,N,01014.9399898,E,4,16,0.64,133.2260,M,40.9646,M,9.0,0688*71
2015-03-17 00:00:25    $GPGGA,000024.00,6008.5975503,N,01014.9399897,E,4,16,0.64,133.2278,M,40.9646,M,10.0,0688*4A
2015-03-17 00:00:26    $GPGGA,000025.00,6008.5975506,N,01014.9399898,E,4,16,0.64,133.2295,M,40.9646,M,11.0,0688*43
2015-03-17 00:00:27    $GPGGA,000026.00,6008.5975520,N,01014.9399893,E,4,16,0.64,133.2289,M,40.9646,M,12.0,0688*41
2015-03-17 00:00:28    $GPGGA,000027.00,6008.5975504,N,01014.9399895,E,4,16,0.64,133.2249,M,40.9646,M,13.0,0688*4D
2015-03-17 00:00:29    $GPGGA,000028.00,6008.5975509,N,01014.9399895,E,4,16,0.64,133.2266,M,40.9646,M,14.0,0688*45
2015-03-17 00:00:30    $GPGGA,000029.00,6008.5975510,N,01014.9399893,E,4,16,0.64,133.2299,M,40.9646,M,15.0,0688*4B
2015-03-17 00:00:31    $GPGGA,000030.00,6008.5975515,N,01014.9399898,E,4,16,0.64,133.2334,M,40.9646,M,16.0,0688*48
2015-03-17 00:00:32    $GPGGA,000031.00,6008.5975511,N,01014.9399921,E,4,16,0.64,133.2374,M,40.9646,M,17.0,0688*4B
2015-03-17 00:00:33    $GPGGA,000032.00,6008.5975499,N,01014.9399910,E,4,16,0.64,133.2355,M,40.9646,M,18.0,0688*47
2015-03-17 00:00:34    $GPGGA,000033.00,6008.5975495,N,01014.9399912,E,4,16,0.64,133.2349,M,40.9646,M,19.0,0688*44
2015-03-17 00:00:35    $GPGGA,000034.00,6008.5975491,N,01014.9399918,E,4,16,0.64,133.2355,M,40.9646,M,20.0,0688*4A
2015-03-17 00:00:36    $GPGGA,000035.00,6008.5975491,N,01014.9399918,E,4,16,0.64,133.2377,M,40.9646,M,21.0,0688*4A
2015-03-17 00:00:37    $GPGGA,000036.00,6008.5975510,N,01014.9399926,E,4,16,0.64,133.2437,M,40.9646,M,22.0,0688*4C
2015-03-17 00:00:38    $GPGGA,000037.00,6008.5975499,N,01014.9399926,E,4,16,0.64,133.2430,M,40.9646,M,23.0,0688*4B
2015-03-17 00:00:39    $GPGGA,000038.00,6008.5975498,N,01014.9399924,E,4,16,0.64,133.2482,M,40.9646,M,24.0,0688*49
2015-03-17 00:00:40    $GPGGA,000039.00,6008.5975513,N,01014.9399924,E,4,16,0.64,133.2523,M,40.9646,M,25.0,0688*41
2015-03-17 00:00:41    $GPGGA,000040.00,6008.5975454,N,01014.9399957,E,4,15,0.64,133.2552,M,40.9646,M,26.0,0688*4F
2015-03-17 00:00:42    $GPGGA,000041.00,6008.5975471,N,01014.9400016,E,4,15,0.64,133.2579,M,40.9646,M,27.0,0688*4A
2015-03-17 00:00:43    $GPGGA,000042.00,6008.5975506,N,01014.9400063,E,4,14,0.64,133.2746,M,40.9646,M,28.0,0688*4A
2015-03-17 00:00:44    $GPGGA,000043.00,6008.5975511,N,01014.9400062,E,4,14,0.64,133.2799,M,40.9646,M,29.0,0688*4F
2015-03-17 00:00:45    $GPGGA,000044.00,6008.5975465,N,01014.9400131,E,4,13,0.64,133.2756,M,40.9646,M,30.0,0688*41
2015-03-17 00:00:46    $GPGGA,000045.00,6008.5975464,N,01014.9400124,E,5,13,0.64,133.2765,M,40.9646,M,31.0,0688*45
2015-03-17 00:00:47    $GPGGA,000046.00,6008.5975385,N,01014.9400223,E,5,12,0.64,133.2813,M,40.9646,M,32.0,0688*46
2015-03-17 00:00:48    $GPGGA,000047.00,6008.5975379,N,01014.9400229,E,5,12,0.64,133.2814,M,40.9646,M,33.0,0688*48
2015-03-17 00:00:49    $GPGGA,000048.00,6008.5975369,N,01014.9400232,E,5,12,0.64,133.2783,M,40.9646,M,34.0,0688*4A
2015-03-17 00:00:50    $GPGGA,000049.00,6008.5975355,N,01014.9400240,E,5,12,0.64,133.2800,M,40.9646,M,35.0,0688*44
2015-03-17 00:00:51    $GPGGA,000050.00,6008.5975348,N,01014.9400235,E,5,12,0.64,133.2780,M,40.9646,M,36.0,0688*46
2015-03-17 00:00:52    $GPGGA,000051.00,6008.5975344,N,01014.9400238,E,5,12,0.64,133.2791,M,40.9646,M,37.0,0688*47
2015-03-17 00:00:53    $GPGGA,000052.00,6008.5975345,N,01014.9400245,E,5,12,0.64,133.2865,M,40.9646,M,38.0,0688*44
2015-03-17 00:00:54    $GPGGA,000053.00,6008.5975342,N,01014.9400267,E,5,12,0.64,133.2909,M,40.9646,M,39.0,0688*48
2015-03-17 00:00:55    $GPGGA,000054.00,6008.5975332,N,01014.9400297,E,5,12,0.64,133.2935,M,40.9646,M,40.0,0688*46
2015-03-17 00:00:56    $GPGGA,000055.00,6008.5975317,N,01014.9400315,E,5,12,0.64,133.2981,M,40.9646,M,41.0,0688*45
2015-03-17 00:00:57    $GPGGA,000056.00,6008.5975392,N,01014.9400381,E,5,11,0.64,133.3293,M,40.9646,M,42.0,0688*4F
2015-03-17 00:00:58    $GPGGA,000057.00,6008.5975386,N,01014.9400386,E,5,11,0.64,133.3352,M,40.9646,M,43.0,0688*41
2015-03-17 00:00:59    $GPGGA,000058.00,6008.5975389,N,01014.9400385,E,5,11,0.64,133.3371,M,40.9646,M,44.0,0688*44
